{"class":"VERSION","release":"3.22","rev":"3.22","proto_major":3,"proto_minor":14}
{"class":"DEVICES","devices":[{"class":"DEVICE","path":"/dev/ttyACM0","driver":"u-blox","subtype":"SW ROM CORE 3.01 (107888),HW 00080000","subtype1":"FWVER=SPG 3.01,PROTVER=18.00,GPS;GLO;GAL;BDS,SBAS;IMES;QZSS","activated":"2024-08-29T21:40:58.051Z","flags":1,"native":0,"bps":9600,"parity":"N","stopbits":1,"cycle":1.00,"mincycle":0.02}]}
{"class":"WATCH","enable":true,"json":true,"nmea":false,"raw":0,"scaled":false,"timing":false,"split24":false,"pps":false}
{"class":"TPV","device":"/dev/ttyACM0","status":2,"mode":3,"time":"2024-08-29T21:40:59.000Z","leapseconds":18,"ept":0.005,"lat":38.735528000,"lon":-104.638507167,"epx":1.503,"epy":1.855,"epv":8.568,"magvar":7.7,"speed":0.020,"eps":3.71,"epc":16.68,"geoidSep":-19.144,"eph":3.230,"sep":7.790}
{"class":"TPV","device":"/dev/ttyACM0","status":2,"mode":3,"time":"2024-08-29T21:40:59.000Z","leapseconds":18,"ept":0.005,"lat":38.735528000,"lon":-104.638507167,"altHAE":1724.2000,"altMSL":1746.5000,"alt":1746.5000,"epx":1.503,"epy":1.855,"epv":8.568,"magvar":7.7,"speed":0.020,"climb":0.200,"eps":3.71,"epc":16.68,"geoidSep":-22.300,"eph":3.230,"sep":7.790}
{"class":"SKY","device":"/dev/ttyACM0","xdop":0.40,"ydop":0.49,"vdop":1.41,"tdop":0.80,"hdop":0.64,"gdop":1.74,"pdop":1.54,"nSat":23,"uSat":16,"satellites":[{"PRN":2,"el":38.0,"az":267.0,"ss":33.0,"used":true,"gnssid":0,"svid":2},{"PRN":3,"el":25.0,"az":314.0,"ss":30.0,"used":true,"gnssid":0,"svid":3},{"PRN":4,"el":7.0,"az":268.0,"ss":15.0,"used":false,"gnssid":0,"svid":4},{"PRN":10,"el":25.0,"az":129.0,"ss":19.0,"used":true,"gnssid":0,"svid":10},{"PRN":12,"el":2.0,"az":31.0,"ss":0.0,"used":false,"gnssid":0,"svid":12},{"PRN":21,"el":38.0,"az":244.0,"ss":28.0,"used":true,"gnssid":0,"svid":21},{"PRN":25,"el":20.0,"az":59.0,"ss":11.0,"used":true,"gnssid":0,"svid":25},{"PRN":26,"el":20.0,"az":155.0,"ss":13.0,"used":true,"gnssid":0,"svid":26},{"PRN":28,"el":71.0,"az":62.0,"ss":27.0,"used":true,"gnssid":0,"svid":28},{"PRN":31,"el":66.0,"az":197.0,"ss":14.0,"used":true,"gnssid":0,"svid":31},{"PRN":32,"el":39.0,"az":64.0,"ss":23.0,"used":true,"gnssid":0,"svid":32},{"PRN":46,"el":38.0,"az":216.0,"ss":33.0,"used":true,"gnssid":1,"svid":133},{"PRN":48,"el":40.0,"az":211.0,"ss":30.0,"used":true,"gnssid":1,"svid":135},{"PRN":65,"el":24.0,"az":305.0,"ss":26.0,"used":true,"gnssid":6,"svid":1},{"PRN":71,"el":29.0,"az":80.0,"ss":10.0,"used":true,"gnssid":6,"svid":7},{"PRN":72,"el":57.0,"az":17.0,"ss":10.0,"used":false,"gnssid":6,"svid":8},{"PRN":73,"el":29.0,"az":40.0,"ss":0.0,"used":false,"gnssid":6,"svid":9},{"PRN":74,"el":55.0,"az":94.0,"ss":0.0,"used":false,"gnssid":6,"svid":10},{"PRN":75,"el":28.0,"az":166.0,"ss":14.0,"used":true,"gnssid":6,"svid":11},{"PRN":81,"el":4.0,"az":344.0,"ss":0.0,"used":false,"gnssid":6,"svid":17},{"PRN":87,"el":22.0,"az":235.0,"ss":14.0,"used":true,"gnssid":6,"svid":23},{"PRN":88,"el":26.0,"az":297.0,"ss":27.0,"used":true,"gnssid":6,"svid":24},{"PRN":89,"el":30.0,"az":41.0,"ss":0.0,"used":false,"gnssid":6,"svid":25}]}
{"class":"TPV","device":"/dev/ttyACM0","status":2,"mode":3,"time":"2024-08-29T21:40:59.000Z","leapseconds":18,"ept":0.005,"lat":38.735528000,"lon":-104.638507167,"altHAE":1724.2000,"altMSL":1746.5000,"alt":1746.5000,"epx":1.503,"epy":1.855,"epv":8.568,"magvar":7.7,"speed":0.020,"climb":0.200,"eps":3.71,"epc":16.68,"geoidSep":-22.300,"eph":3.230,"sep":7.790}
{"class":"TPV","device":"/dev/ttyACM0","status":2,"mode":3,"time":"2024-08-29T21:41:00.000Z","leapseconds":18,"ept":0.005,"lat":38.735527000,"lon":-104.638505000,"epx":1.503,"epy":1.855,"epv":8.107,"magvar":7.7,"speed":0.102,"eps":3.71,"epc":16.68,"geoidSep":-19.144,"eph":3.040,"sep":7.315}
{"class":"TPV","device":"/dev/ttyACM0","status":2,"mode":3,"time":"2024-08-29T21:41:00.000Z","leapseconds":18,"ept":0.005,"lat":38.735527000,"lon":-104.638505000,"altHAE":1723.5000,"altMSL":1745.8000,"alt":1745.8000,"epx":1.503,"epy":1.855,"epv":8.107,"magvar":7.7,"speed":0.102,"climb":-0.700,"eps":3.71,"epc":16.68,"geoidSep":-22.300,"eph":3.040,"sep":7.315}
{"class":"SKY","device":"/dev/ttyACM0","xdop":0.40,"ydop":0.49,"vdop":1.41,"tdop":0.80,"hdop":0.64,"gdop":1.74,"pdop":1.54,"nSat":23,"uSat":16,"satellites":[{"PRN":2,"el":38.0,"az":267.0,"ss":33.0,"used":true,"gnssid":0,"svid":2},{"PRN":3,"el":25.0,"az":314.0,"ss":30.0,"used":true,"gnssid":0,"svid":3},{"PRN":4,"el":7.0,"az":268.0,"ss":14.0,"used":false,"gnssid":0,"svid":4},{"PRN":10,"el":25.0,"az":129.0,"ss":20.0,"used":true,"gnssid":0,"svid":10},{"PRN":12,"el":2.0,"az":31.0,"ss":0.0,"used":false,"gnssid":0,"svid":12},{"PRN":21,"el":38.0,"az":244.0,"ss":28.0,"used":true,"gnssid":0,"svid":21},{"PRN":25,"el":20.0,"az":59.0,"ss":11.0,"used":true,"gnssid":0,"svid":25},{"PRN":26,"el":20.0,"az":155.0,"ss":9.0,"used":true,"gnssid":0,"svid":26},{"PRN":28,"el":71.0,"az":62.0,"ss":27.0,"used":true,"gnssid":0,"svid":28},{"PRN":31,"el":66.0,"az":197.0,"ss":13.0,"used":true,"gnssid":0,"svid":31},{"PRN":32,"el":39.0,"az":64.0,"ss":23.0,"used":true,"gnssid":0,"svid":32},{"PRN":46,"el":38.0,"az":216.0,"ss":32.0,"used":true,"gnssid":1,"svid":133},{"PRN":48,"el":40.0,"az":211.0,"ss":29.0,"used":true,"gnssid":1,"svid":135},{"PRN":65,"el":24.0,"az":305.0,"ss":26.0,"used":true,"gnssid":6,"svid":1},{"PRN":71,"el":29.0,"az":80.0,"ss":12.0,"used":true,"gnssid":6,"svid":7},{"PRN":72,"el":57.0,"az":17.0,"ss":8.0,"used":false,"gnssid":6,"svid":8},{"PRN":73,"el":29.0,"az":40.0,"ss":0.0,"used":false,"gnssid":6,"svid":9},{"PRN":74,"el":55.0,"az":94.0,"ss":0.0,"used":false,"gnssid":6,"svid":10},{"PRN":75,"el":28.0,"az":166.0,"ss":15.0,"used":true,"gnssid":6,"svid":11},{"PRN":81,"el":4.0,"az":344.0,"ss":0.0,"used":false,"gnssid":6,"svid":17},{"PRN":87,"el":22.0,"az":235.0,"ss":11.0,"used":true,"gnssid":6,"svid":23},{"PRN":88,"el":26.0,"az":297.0,"ss":27.0,"used":true,"gnssid":6,"svid":24},{"PRN":89,"el":30.0,"az":41.0,"ss":0.0,"used":false,"gnssid":6,"svid":25}]}
{"class":"TPV","device":"/dev/ttyACM0","status":2,"mode":3,"time":"2024-08-29T21:41:00.000Z","leapseconds":18,"ept":0.005,"lat":38.735527000,"lon":-104.638505000,"altHAE":1723.5000,"altMSL":1745.8000,"alt":1745.8000,"epx":1.503,"epy":1.855,"epv":8.107,"magvar":7.7,"speed":0.102,"climb":-0.700,"eps":3.71,"epc":16.68,"geoidSep":-22.300,"eph":3.040,"sep":7.315}
{"class":"TPV","device":"/dev/ttyACM0","status":2,"mode":3,"time":"2024-08-29T21:41:01.000Z","leapseconds":18,"ept":0.005,"lat":38.735527167,"lon":-104.638505333,"epx":1.503,"epy":1.855,"epv":8.107,"magvar":7.7,"speed":0.087,"eps":3.71,"epc":16.21,"geoidSep":-19.144,"eph":3.040,"sep":7.315}
{"class":"TPV","device":"/dev/ttyACM0","status":2,"mode":3,"time":"2024-08-29T21:41:01.000Z","leapseconds":18,"ept":0.005,"lat":38.735527167,"lon":-104.638505333,"altHAE":1723.4000,"altMSL":1745.7000,"alt":1745.7000,"epx":1.503,"epy":1.855,"epv":8.107,"magvar":7.7,"speed":0.087,"climb":-0.100,"eps":3.71,"epc":16.21,"geoidSep":-22.300,"eph":3.040,"sep":7.315}
{"class":"SKY","device":"/dev/ttyACM0","xdop":0.40,"ydop":0.49,"vdop":1.60,"tdop":0.80,"hdop":0.74,"gdop":1.74,"pdop":1.77,"nSat":23,"uSat":16,"satellites":[{"PRN":2,"el":38.0,"az":267.0,"ss":33.0,"used":true,"gnssid":0,"svid":2},{"PRN":3,"el":25.0,"az":314.0,"ss":30.0,"used":true,"gnssid":0,"svid":3},{"PRN":4,"el":7.0,"az":268.0,"ss":15.0,"used":false,"gnssid":0,"svid":4},{"PRN":10,"el":25.0,"az":129.0,"ss":19.0,"used":true,"gnssid":0,"svid":10},{"PRN":12,"el":2.0,"az":31.0,"ss":0.0,"used":false,"gnssid":0,"svid":12},{"PRN":21,"el":38.0,"az":244.0,"ss":28.0,"used":true,"gnssid":0,"svid":21},{"PRN":25,"el":20.0,"az":59.0,"ss":12.0,"used":true,"gnssid":0,"svid":25},{"PRN":26,"el":20.0,"az":155.0,"ss":13.0,"used":true,"gnssid":0,"svid":26},{"PRN":28,"el":71.0,"az":62.0,"ss":27.0,"used":true,"gnssid":0,"svid":28},{"PRN":31,"el":66.0,"az":197.0,"ss":11.0,"used":true,"gnssid":0,"svid":31},{"PRN":32,"el":39.0,"az":64.0,"ss":23.0,"used":true,"gnssid":0,"svid":32},{"PRN":46,"el":38.0,"az":216.0,"ss":33.0,"used":true,"gnssid":1,"svid":133},{"PRN":48,"el":40.0,"az":211.0,"ss":29.0,"used":true,"gnssid":1,"svid":135},{"PRN":65,"el":24.0,"az":305.0,"ss":26.0,"used":true,"gnssid":6,"svid":1},{"PRN":71,"el":29.0,"az":80.0,"ss":10.0,"used":true,"gnssid":6,"svid":7},{"PRN":72,"el":57.0,"az":17.0,"ss":12.0,"used":false,"gnssid":6,"svid":8},{"PRN":73,"el":29.0,"az":40.0,"ss":0.0,"used":false,"gnssid":6,"svid":9},{"PRN":74,"el":55.0,"az":94.0,"ss":0.0,"used":false,"gnssid":6,"svid":10},{"PRN":75,"el":28.0,"az":166.0,"ss":15.0,"used":true,"gnssid":6,"svid":11},{"PRN":81,"el":4.0,"az":344.0,"ss":0.0,"used":false,"gnssid":6,"svid":17},{"PRN":87,"el":22.0,"az":235.0,"ss":9.0,"used":true,"gnssid":6,"svid":23},{"PRN":88,"el":26.0,"az":297.0,"ss":27.0,"used":true,"gnssid":6,"svid":24},{"PRN":89,"el":30.0,"az":41.0,"ss":0.0,"used":false,"gnssid":6,"svid":25}]}
{"class":"TPV","device":"/dev/ttyACM0","status":2,"mode":3,"time":"2024-08-29T21:41:01.000Z","leapseconds":18,"ept":0.005,"lat":38.735527167,"lon":-104.638505333,"altHAE":1723.4000,"altMSL":1745.7000,"alt":1745.7000,"epx":1.503,"epy":1.855,"epv":8.107,"magvar":7.7,"speed":0.087,"climb":-0.100,"eps":3.71,"epc":16.21,"geoidSep":-22.300,"eph":3.040,"sep":7.315}
{"class":"TPV","device":"/dev/ttyACM0","status":2,"mode":3,"time":"2024-08-29T21:41:02.000Z","leapseconds":18,"ept":0.005,"lat":38.735526833,"lon":-104.638506333,"epx":1.503,"epy":1.855,"epv":9.200,"magvar":7.7,"speed":0.024,"eps":3.71,"epc":17.31,"geoidSep":-19.144,"eph":3.515,"sep":8.408}
{"class":"TPV","device":"/dev/ttyACM0","status":2,"mode":3,"time":"2024-08-29T21:41:02.000Z","leapseconds":18,"ept":0.005,"lat":38.735526833,"lon":-104.638506333,"altHAE":1723.3000,"altMSL":1745.6000,"alt":1745.6000,"epx":1.503,"epy":1.855,"epv":9.200,"magvar":7.7,"speed":0.024,"climb":-0.100,"eps":3.71,"epc":17.31,"geoidSep":-22.300,"eph":3.515,"sep":8.408}
{"class":"SKY","device":"/dev/ttyACM0","xdop":0.40,"ydop":0.50,"vdop":1.67,"tdop":0.90,"hdop":0.64,"gdop":2.00,"pdop":1.79,"nSat":23,"uSat":15,"satellites":[{"PRN":2,"el":38.0,"az":267.0,"ss":33.0,"used":true,"gnssid":0,"svid":2},{"PRN":3,"el":25.0,"az":314.0,"ss":29.0,"used":true,"gnssid":0,"svid":3},{"PRN":4,"el":7.0,"az":268.0,"ss":15.0,"used":false,"gnssid":0,"svid":4},{"PRN":10,"el":25.0,"az":129.0,"ss":19.0,"used":true,"gnssid":0,"svid":10},{"PRN":12,"el":2.0,"az":31.0,"ss":0.0,"used":false,"gnssid":0,"svid":12},{"PRN":21,"el":38.0,"az":244.0,"ss":28.0,"used":true,"gnssid":0,"svid":21},{"PRN":25,"el":20.0,"az":59.0,"ss":12.0,"used":true,"gnssid":0,"svid":25},{"PRN":26,"el":20.0,"az":155.0,"ss":8.0,"used":true,"gnssid":0,"svid":26},{"PRN":28,"el":71.0,"az":62.0,"ss":27.0,"used":true,"gnssid":0,"svid":28},{"PRN":31,"el":66.0,"az":197.0,"ss":7.0,"used":false,"gnssid":0,"svid":31},{"PRN":32,"el":39.0,"az":64.0,"ss":23.0,"used":true,"gnssid":0,"svid":32},{"PRN":46,"el":38.0,"az":216.0,"ss":33.0,"used":true,"gnssid":1,"svid":133},{"PRN":48,"el":40.0,"az":211.0,"ss":29.0,"used":true,"gnssid":1,"svid":135},{"PRN":65,"el":24.0,"az":305.0,"ss":26.0,"used":true,"gnssid":6,"svid":1},{"PRN":71,"el":29.0,"az":80.0,"ss":8.0,"used":true,"gnssid":6,"svid":7},{"PRN":72,"el":57.0,"az":17.0,"ss":11.0,"used":false,"gnssid":6,"svid":8},{"PRN":73,"el":29.0,"az":40.0,"ss":0.0,"used":false,"gnssid":6,"svid":9},{"PRN":74,"el":55.0,"az":94.0,"ss":0.0,"used":false,"gnssid":6,"svid":10},{"PRN":75,"el":28.0,"az":166.0,"ss":13.0,"used":true,"gnssid":6,"svid":11},{"PRN":81,"el":4.0,"az":344.0,"ss":0.0,"used":false,"gnssid":6,"svid":17},{"PRN":87,"el":22.0,"az":235.0,"ss":8.0,"used":true,"gnssid":6,"svid":23},{"PRN":88,"el":26.0,"az":297.0,"ss":26.0,"used":true,"gnssid":6,"svid":24},{"PRN":89,"el":30.0,"az":41.0,"ss":0.0,"used":false,"gnssid":6,"svid":25}]}
{"class":"TPV","device":"/dev/ttyACM0","status":2,"mode":3,"time":"2024-08-29T21:41:02.000Z","leapseconds":18,"ept":0.005,"lat":38.735526833,"lon":-104.638506333,"altHAE":1723.3000,"altMSL":1745.6000,"alt":1745.6000,"epx":1.503,"epy":1.866,"epv":9.200,"magvar":7.7,"speed":0.024,"climb":-0.100,"eps":3.72,"epc":17.31,"geoidSep":-22.300,"eph":3.515,"sep":8.408}
{"class":"TPV","device":"/dev/ttyACM0","status":2,"mode":3,"time":"2024-08-29T21:41:03.000Z","leapseconds":18,"ept":0.005,"lat":38.735526000,"lon":-104.638507500,"epx":1.503,"epy":1.866,"epv":9.602,"magvar":7.7,"speed":0.040,"eps":3.73,"epc":18.80,"geoidSep":-19.144,"eph":3.040,"sep":8.502}
{"class":"TPV","device":"/dev/ttyACM0","status":2,"mode":3,"time":"2024-08-29T21:41:03.000Z","leapseconds":18,"ept":0.005,"lat":38.735526000,"lon":-104.638507500,"altHAE":1723.2000,"altMSL":1745.5000,"alt":1745.5000,"epx":1.503,"epy":1.866,"epv":9.602,"magvar":7.7,"speed":0.040,"climb":-0.100,"eps":3.73,"epc":18.80,"geoidSep":-22.300,"eph":3.040,"sep":8.502}
{"class":"SKY","device":"/dev/ttyACM0","xdop":0.44,"ydop":0.53,"vdop":1.47,"tdop":0.88,"hdop":0.69,"gdop":1.85,"pdop":1.63,"nSat":23,"uSat":15,"satellites":[{"PRN":2,"el":38.0,"az":267.0,"ss":33.0,"used":true,"gnssid":0,"svid":2},{"PRN":3,"el":25.0,"az":314.0,"ss":30.0,"used":true,"gnssid":0,"svid":3},{"PRN":4,"el":7.0,"az":268.0,"ss":15.0,"used":false,"gnssid":0,"svid":4},{"PRN":10,"el":25.0,"az":129.0,"ss":19.0,"used":true,"gnssid":0,"svid":10},{"PRN":12,"el":2.0,"az":31.0,"ss":0.0,"used":false,"gnssid":0,"svid":12},{"PRN":21,"el":38.0,"az":244.0,"ss":28.0,"used":true,"gnssid":0,"svid":21},{"PRN":25,"el":20.0,"az":59.0,"ss":10.0,"used":false,"gnssid":0,"svid":25},{"PRN":26,"el":20.0,"az":155.0,"ss":11.0,"used":true,"gnssid":0,"svid":26},{"PRN":28,"el":71.0,"az":62.0,"ss":27.0,"used":true,"gnssid":0,"svid":28},{"PRN":31,"el":66.0,"az":197.0,"ss":10.0,"used":true,"gnssid":0,"svid":31},{"PRN":32,"el":39.0,"az":64.0,"ss":24.0,"used":true,"gnssid":0,"svid":32},{"PRN":46,"el":38.0,"az":216.0,"ss":33.0,"used":true,"gnssid":1,"svid":133},{"PRN":48,"el":40.0,"az":211.0,"ss":30.0,"used":true,"gnssid":1,"svid":135},{"PRN":65,"el":24.0,"az":305.0,"ss":26.0,"used":true,"gnssid":6,"svid":1},{"PRN":71,"el":29.0,"az":80.0,"ss":10.0,"used":true,"gnssid":6,"svid":7},{"PRN":72,"el":57.0,"az":17.0,"ss":10.0,"used":false,"gnssid":6,"svid":8},{"PRN":73,"el":29.0,"az":40.0,"ss":0.0,"used":false,"gnssid":6,"svid":9},{"PRN":74,"el":55.0,"az":94.0,"ss":0.0,"used":false,"gnssid":6,"svid":10},{"PRN":75,"el":28.0,"az":166.0,"ss":13.0,"used":true,"gnssid":6,"svid":11},{"PRN":81,"el":4.0,"az":344.0,"ss":0.0,"used":false,"gnssid":6,"svid":17},{"PRN":87,"el":22.0,"az":235.0,"ss":11.0,"used":true,"gnssid":6,"svid":23},{"PRN":88,"el":26.0,"az":297.0,"ss":26.0,"used":true,"gnssid":6,"svid":24},{"PRN":89,"el":30.0,"az":41.0,"ss":0.0,"used":false,"gnssid":6,"svid":25}]}
{"class":"TPV","device":"/dev/ttyACM0","status":2,"mode":3,"time":"2024-08-29T21:41:03.000Z","leapseconds":18,"ept":0.005,"lat":38.735526000,"lon":-104.638507500,"altHAE":1723.2000,"altMSL":1745.5000,"alt":1745.5000,"epx":1.649,"epy":1.980,"epv":9.602,"magvar":7.7,"speed":0.040,"climb":-0.100,"eps":3.85,"epc":18.80,"geoidSep":-22.300,"eph":3.040,"sep":8.502}
{"class":"TPV","device":"/dev/ttyACM0","status":2,"mode":3,"time":"2024-08-29T21:41:04.000Z","leapseconds":18,"ept":0.005,"lat":38.735525667,"lon":-104.638508000,"epx":1.649,"epy":1.980,"epv":8.453,"magvar":7.7,"speed":0.045,"eps":3.96,"epc":18.05,"geoidSep":-19.144,"eph":3.277,"sep":7.742}
{"class":"TPV","device":"/dev/ttyACM0","status":2,"mode":3,"time":"2024-08-29T21:41:04.000Z","leapseconds":18,"ept":0.005,"lat":38.735525667,"lon":-104.638508000,"altHAE":1723.0000,"altMSL":1745.3000,"alt":1745.3000,"epx":1.649,"epy":1.980,"epv":8.453,"magvar":7.7,"speed":0.045,"climb":-0.200,"eps":3.96,"epc":18.05,"geoidSep":-22.300,"eph":3.277,"sep":7.742}
{"class":"SKY","device":"/dev/ttyACM0","xdop":0.40,"ydop":0.49,"vdop":1.77,"tdop":0.80,"hdop":0.71,"gdop":1.74,"pdop":1.90,"nSat":23,"uSat":16,"satellites":[{"PRN":2,"el":38.0,"az":267.0,"ss":33.0,"used":true,"gnssid":0,"svid":2},{"PRN":3,"el":25.0,"az":314.0,"ss":30.0,"used":true,"gnssid":0,"svid":3},{"PRN":4,"el":7.0,"az":268.0,"ss":16.0,"used":false,"gnssid":0,"svid":4},{"PRN":10,"el":25.0,"az":129.0,"ss":20.0,"used":true,"gnssid":0,"svid":10},{"PRN":12,"el":2.0,"az":31.0,"ss":0.0,"used":false,"gnssid":0,"svid":12},{"PRN":21,"el":38.0,"az":244.0,"ss":29.0,"used":true,"gnssid":0,"svid":21},{"PRN":25,"el":20.0,"az":59.0,"ss":9.0,"used":true,"gnssid":0,"svid":25},{"PRN":26,"el":20.0,"az":155.0,"ss":12.0,"used":true,"gnssid":0,"svid":26},{"PRN":28,"el":71.0,"az":62.0,"ss":27.0,"used":true,"gnssid":0,"svid":28},{"PRN":31,"el":66.0,"az":197.0,"ss":10.0,"used":true,"gnssid":0,"svid":31},{"PRN":32,"el":39.0,"az":64.0,"ss":23.0,"used":true,"gnssid":0,"svid":32},{"PRN":46,"el":38.0,"az":216.0,"ss":32.0,"used":true,"gnssid":1,"svid":133},{"PRN":48,"el":40.0,"az":211.0,"ss":29.0,"used":true,"gnssid":1,"svid":135},{"PRN":65,"el":24.0,"az":305.0,"ss":26.0,"used":true,"gnssid":6,"svid":1},{"PRN":71,"el":29.0,"az":80.0,"ss":11.0,"used":true,"gnssid":6,"svid":7},{"PRN":72,"el":57.0,"az":17.0,"ss":7.0,"used":false,"gnssid":6,"svid":8},{"PRN":73,"el":29.0,"az":40.0,"ss":0.0,"used":false,"gnssid":6,"svid":9},{"PRN":74,"el":55.0,"az":94.0,"ss":0.0,"used":false,"gnssid":6,"svid":10},{"PRN":75,"el":28.0,"az":166.0,"ss":13.0,"used":true,"gnssid":6,"svid":11},{"PRN":81,"el":4.0,"az":344.0,"ss":0.0,"used":false,"gnssid":6,"svid":17},{"PRN":87,"el":22.0,"az":235.0,"ss":9.0,"used":true,"gnssid":6,"svid":23},{"PRN":88,"el":26.0,"az":297.0,"ss":26.0,"used":true,"gnssid":6,"svid":24},{"PRN":89,"el":30.0,"az":41.0,"ss":0.0,"used":false,"gnssid":6,"svid":25}]}
{"class":"TPV","device":"/dev/ttyACM0","status":2,"mode":3,"time":"2024-08-29T21:41:04.000Z","leapseconds":18,"ept":0.005,"lat":38.735525667,"lon":-104.638508000,"altHAE":1723.0000,"altMSL":1745.3000,"alt":1745.3000,"epx":1.503,"epy":1.855,"epv":8.453,"magvar":7.7,"speed":0.045,"climb":-0.200,"eps":3.83,"epc":18.05,"geoidSep":-22.300,"eph":3.277,"sep":7.742}
{"class":"TPV","device":"/dev/ttyACM0","status":2,"mode":3,"time":"2024-08-29T21:41:05.000Z","leapseconds":18,"ept":0.005,"lat":38.735524833,"lon":-104.638508000,"epx":1.503,"epy":1.855,"epv":10.178,"magvar":7.7,"speed":0.065,"eps":3.71,"epc":18.63,"geoidSep":-19.144,"eph":3.372,"sep":9.025}
{"class":"TPV","device":"/dev/ttyACM0","status":2,"mode":3,"time":"2024-08-29T21:41:05.000Z","leapseconds":18,"ept":0.005,"lat":38.735524833,"lon":-104.638508000,"altHAE":1722.7000,"altMSL":1745.0000,"alt":1745.0000,"epx":1.503,"epy":1.855,"epv":10.178,"magvar":7.7,"speed":0.065,"climb":-0.300,"eps":3.71,"epc":18.63,"geoidSep":-22.300,"eph":3.372,"sep":9.025}
{"class":"SKY","device":"/dev/ttyACM0","xdop":0.40,"ydop":0.49,"vdop":1.41,"tdop":0.80,"hdop":0.64,"gdop":1.74,"pdop":1.54,"nSat":23,"uSat":16,"satellites":[{"PRN":2,"el":38.0,"az":267.0,"ss":33.0,"used":true,"gnssid":0,"svid":2},{"PRN":3,"el":25.0,"az":314.0,"ss":30.0,"used":true,"gnssid":0,"svid":3},{"PRN":4,"el":7.0,"az":268.0,"ss":16.0,"used":false,"gnssid":0,"svid":4},{"PRN":10,"el":25.0,"az":129.0,"ss":20.0,"used":true,"gnssid":0,"svid":10},{"PRN":12,"el":2.0,"az":31.0,"ss":0.0,"used":false,"gnssid":0,"svid":12},{"PRN":21,"el":38.0,"az":244.0,"ss":28.0,"used":true,"gnssid":0,"svid":21},{"PRN":25,"el":20.0,"az":59.0,"ss":11.0,"used":true,"gnssid":0,"svid":25},{"PRN":26,"el":20.0,"az":155.0,"ss":11.0,"used":true,"gnssid":0,"svid":26},{"PRN":28,"el":71.0,"az":62.0,"ss":27.0,"used":true,"gnssid":0,"svid":28},{"PRN":31,"el":66.0,"az":197.0,"ss":10.0,"used":true,"gnssid":0,"svid":31},{"PRN":32,"el":39.0,"az":64.0,"ss":23.0,"used":true,"gnssid":0,"svid":32},{"PRN":46,"el":38.0,"az":216.0,"ss":32.0,"used":true,"gnssid":1,"svid":133},{"PRN":48,"el":40.0,"az":211.0,"ss":29.0,"used":true,"gnssid":1,"svid":135},{"PRN":65,"el":24.0,"az":305.0,"ss":26.0,"used":true,"gnssid":6,"svid":1},{"PRN":71,"el":29.0,"az":80.0,"ss":10.0,"used":true,"gnssid":6,"svid":7},{"PRN":72,"el":57.0,"az":17.0,"ss":12.0,"used":false,"gnssid":6,"svid":8},{"PRN":73,"el":29.0,"az":40.0,"ss":0.0,"used":false,"gnssid":6,"svid":9},{"PRN":74,"el":55.0,"az":94.0,"ss":0.0,"used":false,"gnssid":6,"svid":10},{"PRN":75,"el":28.0,"az":166.0,"ss":14.0,"used":true,"gnssid":6,"svid":11},{"PRN":81,"el":4.0,"az":344.0,"ss":0.0,"used":false,"gnssid":6,"svid":17},{"PRN":87,"el":22.0,"az":235.0,"ss":10.0,"used":true,"gnssid":6,"svid":23},{"PRN":88,"el":26.0,"az":297.0,"ss":26.0,"used":true,"gnssid":6,"svid":24},{"PRN":89,"el":30.0,"az":41.0,"ss":0.0,"used":false,"gnssid":6,"svid":25}]}
{"class":"TPV","device":"/dev/ttyACM0","status":2,"mode":3,"time":"2024-08-29T21:41:05.000Z","leapseconds":18,"ept":0.005,"lat":38.735524833,"lon":-104.638508000,"altHAE":1722.7000,"altMSL":1745.0000,"alt":1745.0000,"epx":1.503,"epy":1.855,"epv":10.178,"magvar":7.7,"speed":0.065,"climb":-0.300,"eps":3.71,"epc":18.63,"geoidSep":-22.300,"eph":3.372,"sep":9.025}
{"class":"TPV","device":"/dev/ttyACM0","status":2,"mode":3,"time":"2024-08-29T21:41:06.000Z","leapseconds":18,"ept":0.005,"lat":38.735523833,"lon":-104.638508000,"epx":1.503,"epy":1.855,"epv":8.107,"magvar":7.7,"speed":0.027,"eps":3.71,"epc":18.29,"geoidSep":-19.144,"eph":3.040,"sep":7.315}
{"class":"TPV","device":"/dev/ttyACM0","status":2,"mode":3,"time":"2024-08-29T21:41:06.000Z","leapseconds":18,"ept":0.005,"lat":38.735523833,"lon":-104.638508000,"altHAE":1722.4000,"altMSL":1744.7000,"alt":1744.7000,"epx":1.503,"epy":1.855,"epv":8.107,"magvar":7.7,"speed":0.027,"climb":-0.300,"eps":3.71,"epc":18.29,"geoidSep":-22.300,"eph":3.040,"sep":7.315}
{"class":"SKY","device":"/dev/ttyACM0","xdop":0.40,"ydop":0.49,"vdop":1.41,"tdop":0.80,"hdop":0.64,"gdop":1.74,"pdop":1.54,"nSat":23,"uSat":16,"satellites":[{"PRN":2,"el":38.0,"az":267.0,"ss":33.0,"used":true,"gnssid":0,"svid":2},{"PRN":3,"el":25.0,"az":314.0,"ss":30.0,"used":true,"gnssid":0,"svid":3},{"PRN":4,"el":7.0,"az":268.0,"ss":17.0,"used":false,"gnssid":0,"svid":4},{"PRN":10,"el":25.0,"az":129.0,"ss":19.0,"used":true,"gnssid":0,"svid":10},{"PRN":12,"el":2.0,"az":31.0,"ss":0.0,"used":false,"gnssid":0,"svid":12},{"PRN":21,"el":38.0,"az":244.0,"ss":28.0,"used":true,"gnssid":0,"svid":21},{"PRN":25,"el":20.0,"az":59.0,"ss":10.0,"used":true,"gnssid":0,"svid":25},{"PRN":26,"el":20.0,"az":155.0,"ss":11.0,"used":true,"gnssid":0,"svid":26},{"PRN":28,"el":71.0,"az":62.0,"ss":27.0,"used":true,"gnssid":0,"svid":28},{"PRN":31,"el":66.0,"az":197.0,"ss":11.0,"used":true,"gnssid":0,"svid":31},{"PRN":32,"el":39.0,"az":64.0,"ss":23.0,"used":true,"gnssid":0,"svid":32},{"PRN":46,"el":38.0,"az":216.0,"ss":33.0,"used":true,"gnssid":1,"svid":133},{"PRN":48,"el":40.0,"az":211.0,"ss":29.0,"used":true,"gnssid":1,"svid":135},{"PRN":65,"el":24.0,"az":305.0,"ss":26.0,"used":true,"gnssid":6,"svid":1},{"PRN":71,"el":29.0,"az":80.0,"ss":8.0,"used":true,"gnssid":6,"svid":7},{"PRN":72,"el":57.0,"az":17.0,"ss":10.0,"used":false,"gnssid":6,"svid":8},{"PRN":73,"el":29.0,"az":40.0,"ss":0.0,"used":false,"gnssid":6,"svid":9},{"PRN":74,"el":55.0,"az":94.0,"ss":0.0,"used":false,"gnssid":6,"svid":10},{"PRN":75,"el":28.0,"az":166.0,"ss":11.0,"used":true,"gnssid":6,"svid":11},{"PRN":81,"el":4.0,"az":344.0,"ss":0.0,"used":false,"gnssid":6,"svid":17},{"PRN":87,"el":22.0,"az":235.0,"ss":12.0,"used":true,"gnssid":6,"svid":23},{"PRN":88,"el":26.0,"az":297.0,"ss":26.0,"used":true,"gnssid":6,"svid":24},{"PRN":89,"el":30.0,"az":41.0,"ss":0.0,"used":false,"gnssid":6,"svid":25}]}
{"class":"TPV","device":"/dev/ttyACM0","status":2,"mode":3,"time":"2024-08-29T21:41:06.000Z","leapseconds":18,"ept":0.005,"lat":38.735523833,"lon":-104.638508000,"altHAE":1722.4000,"altMSL":1744.7000,"alt":1744.7000,"epx":1.503,"epy":1.855,"epv":8.107,"magvar":7.7,"speed":0.027,"climb":-0.300,"eps":3.71,"epc":18.29,"geoidSep":-22.300,"eph":3.040,"sep":7.315}